City ID,City,Country,Lat,Lng,Temperature,Humidity,Clouds,Wind Speed
1006984,East London,ZA,-33.02,27.91,67.95,75,81,10.54
1106677,Bambous Virieux,MU,-20.34,57.76,77.0,88,40,11.41
3466165,Cidreira,BR,-30.18,-50.21,72.03,92,1,10.51
2075265,Busselton,AU,-33.65,115.33,60.26,73,0,1.01
4030556,Rikitea,PF,-23.12,-134.97,77.68,66,13,2.93
4020109,Atuona,PF,-9.8,-139.03,79.03,76,18,18.48
1649150,Bengkulu,ID,-3.8,102.27,75.58,85,100,5.01
2152659,Port Macquarie,AU,-31.43,152.92,75.11,94,75,8.05
3874787,Punta Arenas,CL,-53.15,-70.92,50.5,61,0,32.21
2194098,Ahipara,NZ,-35.17,173.17,70.21,51,0,7.36
4032243,Vaini,TO,-21.2,-175.2,78.8,83,75,17.22
2068110,Kununurra,AU,-15.77,128.73,86.0,79,94,3.36
3443061,Chui,UY,-33.7,-53.46,65.23,78,24,14.03
2094342,Kavieng,PG,-2.57,150.8,85.6,67,100,5.48
3833367,Ushuaia,AR,-54.8,-68.3,41.0,93,75,32.21
3366880,Hermanus,ZA,-34.42,19.23,53.01,92,0,9.08
2206939,Bluff,NZ,-46.6,168.33,59.07,80,90,11.16
934649,Cap Malheureux,MU,-19.98,57.61,77.0,86,17,7.0
3471451,Arraial do Cabo,BR,-22.97,-42.03,77.0,83,20,10.29
964420,Port Elizabeth,ZA,-33.92,25.57,64.4,88,0,11.41
3388456,São José da Coroa Grande,BR,-8.9,-35.15,78.17,80,83,8.97
2163355,Hobart,AU,-42.88,147.33,55.83,50,75,9.17
6201424,Mataura,NZ,-46.19,168.86,67.03,54,61,7.67
2092164,Lorengau,PG,-2.02,147.27,85.66,69,70,5.41
1015776,Bredasdorp,ZA,-34.53,20.04,55.4,82,0,2.24
1282256,Hithadhoo,MV,-0.6,73.08,81.37,71,56,10.27
3357247,Gobabis,NA,-22.45,18.97,73.4,43,45,1.12
1651810,Airai,TL,-8.93,125.41,68.67,93,94,3.15
990930,Kimberley,ZA,-28.73,24.76,64.4,72,0,5.82
1040938,Manjacaze,MZ,-24.71,33.88,74.12,91,100,5.28
2109701,Auki,SB,-8.77,160.7,86.22,68,39,6.82
934322,Mahébourg,MU,-20.41,57.7,77.0,88,40,11.41
3466980,Caravelas,BR,-17.71,-39.25,74.21,89,19,5.08
2191562,Dunedin,NZ,-45.87,170.5,64.0,68,88,15.99
2074865,Carnarvon,AU,-24.87,113.63,71.6,88,90,20.8
6355222,Yulara,AU,-25.24,130.99,80.6,54,75,12.75
964432,Port Alfred,ZA,-33.59,26.89,64.99,89,1,1.99
1645528,Denpasar,ID,-8.65,115.22,77.0,94,75,8.05
3839307,Rawson,AR,-43.3,-65.1,72.88,21,39,14.07
1633442,Paciran,ID,-6.88,112.38,78.78,85,95,8.28
3407407,Aquiraz,BR,-3.9,-38.39,80.6,78,40,8.05
2167426,Emerald,AU,-23.53,148.17,85.55,58,40,13.87
3361934,Saldanha,ZA,-33.01,17.94,60.8,72,0,14.99
2155415,New Norfolk,AU,-42.78,147.06,55.31,58,98,1.01
3883457,Lebu,CL,-37.62,-73.65,53.28,74,0,23.4
3838233,Salta,AR,-24.79,-65.41,77.0,47,40,8.05
3868626,Valparaíso,CL,-33.04,-71.63,65.41,48,0,16.11
3460064,Jatai,BR,-17.88,-51.71,73.62,73,100,5.21
2186111,Ngunguru,NZ,-35.62,174.5,80.01,44,3,1.01
3650186,Vinces,EC,-1.55,-79.73,80.17,74,75,9.17
935215,Saint-Philippe,RE,-21.36,55.77,68.56,94,50,3.36
2180815,Tuatapere,NZ,-46.13,167.68,62.55,66,85,6.69
3385670,Urucará,BR,-2.54,-57.76,76.64,89,95,3.0
2070998,Geraldton,AU,-28.77,114.6,68.0,72,0,8.05
3446038,Trindade,BR,-16.65,-49.49,84.2,51,20,5.82
4035715,Avarua,CK,-21.21,-159.78,84.2,74,92,14.99
2208248,Kaitangata,NZ,-46.28,169.85,72.0,43,73,14.0
3652764,Puerto Ayora,EC,-0.74,-90.35,75.07,65,0,8.14
3443631,Bella Union,UY,-30.28,-57.6,74.61,43,10,8.32
3893629,Coquimbo,CL,-29.95,-71.34,57.2,87,75,11.41
3653523,Palora,EC,-1.7,-77.93,68.0,94,75,3.36
986717,Kruisfontein,ZA,-34.0,24.73,61.0,87,2,6.33
3353715,Outjo,NA,-20.12,16.15,71.6,46,12,3.36
2160517,Launceston,AU,-41.45,147.17,61.84,58,75,21.92
3465303,Costa Rica,BR,-23.42,-54.65,76.69,73,22,4.43
3388847,São Félix do Xingu,BR,-6.64,-51.99,73.67,80,76,1.92
3369157,Cape Town,ZA,-33.93,18.42,62.65,72,0,21.92
3430863,Mar del Plata,AR,-38.0,-57.56,59.77,51,0,5.82
1630935,Polewali,ID,-3.43,119.34,81.55,68,100,2.57
2155562,Nelson Bay,AU,-32.72,152.15,78.69,78,40,11.41
3448903,São João da Barra,BR,-21.64,-41.05,76.3,82,63,18.68
1626542,Sorong,ID,-0.88,131.25,83.37,78,100,11.61
3398255,Independência,BR,-5.4,-40.31,86.74,39,97,3.87
3894406,Coihueco,CL,-36.62,-71.83,75.2,27,0,14.99
933995,Souillac,MU,-20.52,57.52,77.0,88,40,11.41
3354071,Oranjemund,NA,-28.55,16.43,61.9,79,0,17.81
2077895,Alice Springs,AU,-23.7,133.88,91.4,18,0,13.87
3466704,Castro,BR,-24.79,-50.01,65.16,94,1,3.15
1059507,Marovoay,MG,-16.1,46.63,77.0,88,20,3.36
2134814,Sola,VU,-13.88,167.55,81.7,77,99,6.69
2192362,Christchurch,NZ,-43.53,172.63,68.79,63,0,19.46
1628884,Sampit,ID,-2.53,112.95,78.44,88,100,2.24
3429732,Puerto Rico,AR,-26.8,-55.02,76.46,56,0,2.39
2136825,Isangel,VU,-19.55,169.27,87.8,62,75,5.82
2396853,Omboué,GA,-1.57,9.26,77.09,90,100,9.98
2062276,Roebourne,AU,-20.78,117.13,81.46,66,47,2.01
2146219,Hervey Bay,AU,-25.3,152.85,85.01,65,90,9.17
3404558,Cabedelo,BR,-6.98,-34.83,78.8,83,20,10.29
2137773,Vao,NC,-22.67,167.48,76.24,73,14,23.11
3650956,Sucúa,EC,-2.47,-78.17,69.8,88,75,6.93
3838859,Río Gallegos,AR,-51.62,-69.22,57.2,35,20,41.38
916246,Kabompo,ZM,-13.59,24.2,62.87,98,87,4.68
1626932,Singaraja,ID,-8.11,115.09,79.95,74,98,5.37
3899539,Antofagasta,CL,-23.65,-70.4,66.2,72,75,11.41
2172797,Cairns,AU,-16.92,145.77,86.0,62,100,2.24
3408343,Acopiara,BR,-6.1,-39.45,84.2,44,94,3.44
3899695,Ancud,CL,-41.87,-73.82,49.23,66,90,5.82
1622318,Waingapu,ID,-9.66,120.26,82.44,73,94,5.44
3437443,Pozo Colorado,PY,-23.49,-58.8,80.47,67,31,5.7
3461465,Iguape,BR,-24.71,-47.56,73.53,94,80,4.32
3893726,Constitución,CL,-35.33,-72.42,58.78,65,0,15.75
3453078,Ponte Nova,BR,-20.42,-42.91,69.22,91,79,2.75
1630789,Pontianak,ID,-0.03,109.33,75.09,91,100,3.18
2181625,Te Anau,NZ,-45.42,167.72,62.91,60,99,8.1
2065594,Mount Isa,AU,-20.73,139.5,89.6,40,100,8.05
4034551,Faanui,PF,-16.48,-151.75,80.67,78,66,18.25
2063056,Port Augusta,AU,-32.5,137.77,73.89,77,90,13.87
3865086,Bahía Blanca,AR,-38.72,-62.27,69.39,24,2,5.32
4033557,Tautira,PF,-17.73,-149.15,87.8,58,20,24.16
2171099,Codrington,AU,-38.27,141.97,56.28,93,100,10.27
4036284,Alofi,NU,-19.06,-169.92,78.8,94,90,21.92
3395981,Maceió,BR,-9.67,-35.74,75.2,88,20,3.36
3855075,General Pico,AR,-35.66,-63.76,69.42,21,0,9.42
2108857,Gizo Government Station,SB,-8.1,156.84,85.37,71,60,8.77
2063036,Port Lincoln,AU,-34.73,135.87,60.39,83,99,13.27
3842670,Olavarría,AR,-36.89,-60.32,61.65,30,0,0.92
2400547,Gamba,GA,-2.65,10.0,77.45,89,100,8.57
2173911,Broken Hill,AU,-31.95,141.43,77.0,47,0,16.11
3694112,Paita,PE,-5.09,-81.11,67.28,85,4,11.83
6255012,Flinders,AU,-34.58,150.86,73.15,97,90,7.0
3836277,Santa Fe,AR,-31.63,-60.7,77.45,63,51,1.99
3440777,Rocha,UY,-34.48,-54.33,59.81,67,65,8.28
3902202,Tupiza,BO,-21.45,-65.72,63.16,51,5,10.27
2071860,Esperance,AU,-33.87,121.9,60.8,63,40,11.41
1636308,Manokwari,ID,-0.87,134.08,82.29,78,100,6.26
2173125,Burnie,AU,-41.07,145.92,65.08,59,99,5.01
2094027,Kieta,PG,-6.22,155.63,85.5,67,39,6.02
3455020,Paraúna,BR,-16.95,-50.45,74.95,72,97,0.36
3386213,Touros,BR,-5.2,-35.46,80.6,78,40,13.87
3468436,Cachoeira do Sul,BR,-30.04,-52.89,73.51,59,1,9.26
175967,Mporokoso,ZM,-9.37,30.12,60.64,92,82,0.63
3347019,Mossamedes,AO,-15.2,12.15,66.4,81,66,4.29
3355672,Lüderitz,NA,-26.65,15.16,66.2,59,0,21.92
3445026,Vila Velha,BR,-20.33,-40.29,77.0,83,0,17.22
3932145,Pisco,PE,-13.7,-76.22,69.57,78,0,14.99
3935102,Mazamari,PE,-11.33,-74.53,74.08,77,100,1.68
3471522,Arinos,BR,-15.92,-46.11,72.63,65,1,1.81
2142316,Yeppoon,AU,-23.13,150.73,84.2,58,75,4.7
3691954,Sechura,PE,-5.56,-80.82,72.14,69,15,13.49
3356832,Henties Bay,NA,-22.12,14.28,61.0,89,43,3.42
2141305,Fayaoué,NC,-20.65,166.53,78.89,76,3,21.68
2063039,Port Keats,AU,-14.25,129.55,90.28,63,97,5.86
3939761,Hualmay,PE,-11.1,-77.61,68.11,81,36,7.34
877631,Namikupa,TZ,-10.83,39.6,71.01,98,35,3.67
3359736,Vredendal,ZA,-31.67,18.5,61.32,67,0,1.07
2180991,Tolaga Bay,NZ,-38.37,178.3,75.58,41,0,10.49
3899361,Arica,CL,-18.48,-70.3,68.0,77,0,6.93
1636426,Manggar,ID,-2.88,108.27,80.42,79,100,8.41
3403251,Canto do Buriti,BR,-8.11,-42.94,80.69,44,96,3.27
3449099,São Gabriel,BR,-30.34,-54.32,74.28,52,1,9.4
3894426,Coyhaique,CL,-45.58,-72.07,53.6,50,75,10.29
2132606,Samarai,PG,-10.62,150.67,83.79,71,34,7.05
159218,Ilembula,TZ,-8.9,34.58,63.77,85,56,5.68
3906209,Rurrenabaque,BO,-14.44,-67.53,84.2,74,75,1.95
2094746,Kandrian,PG,-6.22,149.55,84.7,73,100,3.94
1045114,Inhambane,MZ,-23.86,35.38,77.4,89,47,4.88
3843123,Neuquén,AR,-38.95,-68.06,77.0,25,0,3.36
3855065,General Roca,AR,-39.03,-67.58,77.0,25,0,3.36
2240449,Luanda,AO,-8.84,13.23,77.0,78,20,8.05
3892454,Diego de Almagro,CL,-26.37,-70.05,62.67,47,0,3.51
6620339,Karratha,AU,-20.74,116.85,81.57,66,62,3.8
3837213,San Juan,AR,-31.54,-68.54,78.24,17,3,9.62
3661756,Uarini,BR,-2.99,-65.11,77.0,88,40,2.24
1650077,Banyuwangi,ID,-8.23,114.36,76.96,82,99,2.84
2098329,Daru,PG,-9.08,143.21,83.19,82,87,9.82
2109528,Buala,SB,-8.14,159.59,84.99,75,88,7.31
